City_ID,City,Country,Max Temp,Current Description,Lat,Lng,Hotel Name
0,Kovrov,RU,54.59,overcast clouds,56.36,41.32,Hostel Domino
1,Ukiah,US,84.2,clear sky,39.15,-123.21,Hampton Inn Ukiah
2,Porbandar,IN,80.6,haze,21.64,69.61,Lords Inn Porbandar
3,Vasterhaninge,SE,60.01,scattered clouds,59.12,18.1,Viamap
5,Tiksi,RU,52.25,broken clouds,71.69,128.87,Arktika
6,Kapaa,US,82.4,overcast clouds,22.08,-159.32,Sheraton Kauai Resort at Coconut Beach
7,Cape Town,ZA,57.0,broken clouds,-33.93,18.42,Southern Sun Waterfront Cape Town
8,Ucluelet,CA,59.0,scattered clouds,48.93,-125.55,Black Rock Oceanfront Resort
9,Avarua,CK,78.8,light rain,-21.21,-159.78,Paradise Inn
10,Waipawa,NZ,60.8,scattered clouds,-41.41,175.52,Tora Coastal Walk
11,Sudislavl,RU,53.74,overcast clouds,57.88,41.71,"Hotel ""Tretyakov"""
12,Bredasdorp,ZA,53.6,broken clouds,-34.53,20.04,Bredasdorp Country Manor
13,Cedar Falls,US,66.99,broken clouds,42.53,-92.45,"Country Inn & Suites by Radisson, Cedar Falls, IA"
14,Povenets,RU,56.14,overcast clouds,62.85,34.83,Eko Otel' Bol'shaya Medveditsa
15,Yellowknife,CA,51.01,few clouds,62.46,-114.35,The Explorer Hotel
16,Saint-Philippe,RE,64.4,broken clouds,-21.36,55.77,"Chambres d'hôte ""La Trinité"""
17,Castro,BR,59.11,clear sky,-24.79,-50.01,CHACARA BAILLY
18,Guerrero Negro,MX,74.32,clear sky,27.98,-114.06,"Casa Laguna, Bed & Breakfast"
19,Acapulco,MX,77.0,moderate rain,16.86,-99.89,HS Hotsson Smart Acapulco
21,Constantine,DZ,62.6,few clouds,36.37,6.61,Grand Hotel Cirta
22,Rikitea,PF,71.71,overcast clouds,-23.12,-134.97,Pension Maro'i
23,Gryazovets,RU,56.5,overcast clouds,58.88,40.25,Hotel Druzhba
24,Remscheid,DE,61.0,overcast clouds,51.18,7.2,mk|hotel remscheid
25,Akyab,MM,84.65,broken clouds,20.15,92.9,Hotel Memory
26,Faanui,PF,77.4,scattered clouds,-16.48,-151.75,Bora-Bora Pearl Beach Resort & Spa
28,New Norfolk,AU,59.0,scattered clouds,-42.78,147.06,The Shingles Riverside Cottages
29,Abu Zabad,SD,74.59,overcast clouds,12.35,29.25,محي الدين نوري
32,Rzeszow,PL,60.8,scattered clouds,50.04,22.0,Hotel Hetman
35,Jamestown,US,59.0,broken clouds,42.1,-79.24,Hampton Inn & Suites Jamestown
36,Lasa,IT,55.0,clear sky,46.62,10.7,Pension Feldgärtenhof
37,Port Alfred,ZA,62.24,clear sky,-33.59,26.89,The Halyards Hotel
38,Puerto Ayora,EC,66.99,broken clouds,-0.74,-90.35,Finch Bay Galapagos Hotel
39,Bluff,NZ,53.13,overcast clouds,-46.6,168.33,Bluff Homestead - Guesthouse & Campervan Park
40,Labuhan,ID,86.45,clear sky,-6.88,112.21,bador sepret
41,Hay River,CA,53.6,broken clouds,60.82,-115.8,Ptarmigan Inn Hotels
42,Hermanus,ZA,53.01,scattered clouds,-34.42,19.23,Misty Waves Boutique Hotel
44,Bandarbeyla,SO,75.45,broken clouds,9.49,50.81,REER XOOSHLE GROUP
45,La Crosse,US,64.4,few clouds,43.8,-91.24,Holiday Inn & Suites la Crosse - Downtown
46,Mataura,NZ,57.85,broken clouds,-46.19,168.86,Ellie's Villa
47,Bulawayo,ZW,51.78,clear sky,-20.15,28.58,4 On Housman Backpackers
51,Cascais,PT,68.0,clear sky,38.7,-9.42,Hotel Vila Galé Cascais
52,Nova Ushytsya,UA,53.06,clear sky,48.84,27.27,"Mini-Hotelʹ ""Edem"""
53,Lagoa,PT,68.9,few clouds,39.05,-27.98,Casa Das Faias
55,Sitka,US,59.0,broken clouds,57.05,-135.33,Westmark Sitka
57,Bengkulu,ID,83.01,overcast clouds,-3.8,102.27,Grage Hotel Bengkulu
58,Vaini,TO,73.4,few clouds,-21.2,-175.2,Keleti Beach Resort
60,Souillac,MU,66.2,broken clouds,-20.52,57.52,Bils' Villa
61,Hilo,US,84.2,broken clouds,19.73,-155.09,Hilo Hawaiian Hotel
62,Hobart,AU,59.0,scattered clouds,-42.88,147.33,St Ives Hobart Accommodation Tasmania
63,Pierre,US,75.2,clear sky,44.37,-100.35,Ramkota Hotel
64,Busselton,AU,66.0,light rain,-33.65,115.33,Observatory Guest House
65,Puerto Del Rosario,ES,69.8,clear sky,28.5,-13.86,Hotel JM Puerto del Rosario
66,Carnarvon,AU,69.8,clear sky,-24.87,113.63,Hospitality Carnarvon
67,Praia,CV,78.8,broken clouds,14.92,-23.51,LT Aparthotel
69,Georgetown,MY,84.2,few clouds,5.41,100.34,Cititel Penang
70,Cabo San Lucas,MX,86.0,clear sky,22.89,-109.91,Hotel Tesoro Los Cabos
73,Naze,JP,77.0,light rain,28.37,129.48,奄美ポートタワーホテル
74,Carauari,BR,78.93,scattered clouds,-4.88,-66.9,Pousada Lobo
76,Nicoya,CR,75.99,light rain,10.15,-85.45,Guayacan Real
77,Coreau,BR,68.9,clear sky,-3.53,-40.66,LOJA E POUSADA CARCARÁ
81,Obera,AR,57.36,clear sky,-27.49,-55.12,CABAÑAS DORALIA
82,Seddon,AU,63.0,broken clouds,-37.81,144.89,AKOM AT DOCKLANDS
83,Port Elizabeth,ZA,60.8,clear sky,-33.92,25.57,39 On Nile Guest House
84,Casablanca,MA,73.0,clear sky,33.59,-7.62,Hotel Moroccan House Casablanca
85,Waddan,LY,73.09,clear sky,29.16,16.14,محل الشريف محمد العايب
86,Eureka,US,64.4,clear sky,40.8,-124.16,Eureka Inn Trademark By Wyndham
87,Port Hardy,CA,64.4,fog,50.7,-127.42,Airport Inn
88,Umarkhed,IN,81.36,broken clouds,19.6,77.7,Jay shree ram
89,Iquique,CL,60.8,overcast clouds,-20.22,-70.14,Backpacker`s Hostel Iquique
91,Adjumani,UG,64.29,few clouds,3.38,31.79,Hotel Zawadi
92,Laramie,US,73.4,clear sky,41.31,-105.59,Ramada by Wyndham Laramie
93,Ketchikan,US,55.4,light rain,55.34,-131.65,Snows Cove Lodge
95,Fortuna,US,64.0,clear sky,40.6,-124.16,Super 8 by Wyndham Fortuna
99,Grand Gaube,MU,66.0,clear sky,-20.01,57.66,Veranda Paul et Virginie Hotel & Spa
101,San Isidro,PE,59.0,clear sky,-12.12,-77.05,Radisson Hotel Decapolis Miraflores
102,Chipinge,ZW,50.94,scattered clouds,-20.19,32.62,Mutare Club
103,Caravelas,BR,70.03,scattered clouds,-17.71,-39.25,Pousada dos Navegantes
105,Tahe,CN,54.21,moderate rain,52.33,124.73,塔河宾馆
106,Celestun,MX,81.32,broken clouds,20.87,-90.4,Posada Lilia
107,Ribeira Grande,PT,70.27,clear sky,38.52,-28.7,Quinta da Meia Eira
108,Wajima,JP,82.4,broken clouds,37.4,136.9,Wajiima Onsen Yashio
109,Meulaboh,ID,84.52,overcast clouds,4.14,96.13,Kost Pria
110,Santa Ana,US,81.0,clear sky,33.75,-117.87,Best Western Plus Orange County Airport North
111,Novobureyskiy,RU,69.3,overcast clouds,49.8,129.88,"Gostinitsa ""Medvezhiy Ugol"""
113,Hirara,JP,86.0,broken clouds,24.8,125.28,Hotel Atoll Emerald Miyakojima
114,Boston,US,71.6,clear sky,42.36,-71.06,XV Beacon Hotel
116,Hithadhoo,MV,82.17,clear sky,-0.6,73.08,Scoop Guest House
117,San Antonio,US,78.8,clear sky,29.42,-98.49,Marriott Plaza San Antonio
118,Kandalaksha,RU,55.0,overcast clouds,67.16,32.41,Motel Gora Krestovaya
119,Porto Novo,BJ,77.0,few clouds,6.5,2.6,Tour Eiffel Hotel Benin
120,Itarema,BR,77.94,clear sky,-2.92,-39.92,Windvillage
121,Nikolskoye,RU,57.0,scattered clouds,59.7,30.79,Tourist House - Sablino
122,Nago,JP,82.4,scattered clouds,26.59,127.98,Hotel Yugaf Inn Okinawa
123,East London,ZA,63.88,clear sky,-33.02,27.91,Tu Casa
124,Vardo,NO,52.95,scattered clouds,70.37,31.11,Vardø Hotel AS
126,Boca Do Acre,BR,79.41,scattered clouds,-8.75,-67.4,Hotel Linhares
127,Hammerfest,NO,51.8,overcast clouds,70.66,23.68,Skytterhuset
129,Brae,GB,51.8,scattered clouds,60.4,-1.35,Busta House Hotel
130,Severo-Kurilsk,RU,55.0,broken clouds,50.68,156.12,Kak Doma
132,Kahului,US,89.6,scattered clouds,20.89,-156.47,Maui Seaside Hotel
133,Saint-Georges,GD,84.2,few clouds,12.06,-61.75,Siesta Hotel
134,Presidente Medici,BR,80.8,few clouds,-11.18,-61.9,Oliveira Palace Hotel
135,Cidreira,BR,55.81,clear sky,-30.18,-50.21,Hotel Castelo
136,Laguna,US,91.4,clear sky,38.42,-121.42,Holiday Inn Express & Suites Elk Grove Central - Hwy 99
137,Kupang,ID,89.6,few clouds,-10.17,123.58,Sylvia Hotel Premier Kupang
140,Wahiawa,US,84.0,overcast clouds,21.5,-158.02,Aloha Wahiawa
141,San Patricio,MX,81.32,broken clouds,19.22,-104.7,Hotel Cabo Blanco
142,Norman Wells,CA,53.6,broken clouds,65.28,-126.83,Heritage Hotel
143,Port Macquarie,AU,78.01,light rain,-31.43,152.92,Rydges Port Macquarie
144,Svetlogorsk,BY,51.96,clear sky,52.63,29.73,Hotel Svetlogorsk JBIK
145,San Juan,AR,54.43,clear sky,-31.54,-68.54,Hotel Provincial
150,Nosy Varika,MG,63.99,light rain,-20.58,48.53,Hotel Volazara
153,Burnie,AU,61.0,broken clouds,-41.07,145.92,Beachfront Voyager Motor Inn
154,Lincoln,US,70.0,clear sky,40.8,-96.67,Courtyard by Marriott Lincoln Downtown/Haymarket
155,Kutum,SD,75.29,overcast clouds,14.2,24.67,Dibbo areaمنطقة دبو
157,Atuona,PF,78.8,clear sky,-9.8,-139.03,Villa Enata
158,Kawalu,ID,79.57,broken clouds,-7.38,108.21,KOSAN UNGU UNSIK
159,Port Keats,AU,89.53,light rain,-14.25,129.55,TDC Village (Hundred Man Camp)
160,Morales,CO,60.26,overcast clouds,2.76,-76.62,Finca Santa Catalina
161,Kavieng,PG,84.25,moderate rain,-2.57,150.8,Nusa Island Retreat
163,Fare,PF,78.46,scattered clouds,-16.7,-151.02,Maitai Lapita Village Huahine
167,Brazzaville,CG,69.8,few clouds,-4.27,15.28,Hotel Murex
168,Stillwater,US,84.2,clear sky,36.12,-97.06,Hampton Inn & Suites Stillwater
169,Esperance,AU,68.0,clear sky,-33.87,121.9,Hospitality Esperance
170,Navahrudak,BY,56.53,overcast clouds,53.6,25.83,Hotel Grazhina
171,Butaritari,KI,83.3,broken clouds,3.07,172.79,Isles Sunset Lodge
172,Owando,CG,72.1,clear sky,-0.48,15.9,Exaunel Hotel Owando
173,San Cristobal,VE,82.4,scattered clouds,7.77,-72.22,Pirineos
174,Japura,ID,79.07,overcast clouds,-0.32,102.35,Rumah mbah Jamah
175,Chokwe,MZ,59.38,clear sky,-24.53,32.98,Complexo Sonho Real
176,Dargaville,NZ,56.66,overcast clouds,-35.93,173.88,Parkview Motel
178,Arraial Do Cabo,BR,73.4,few clouds,-22.97,-42.03,Pousada Porto Praia
179,Bam,IR,78.98,clear sky,29.11,58.36,Bam Tourist Hotel
180,Douentza,ML,81.91,broken clouds,15.0,-2.95,Ogomono Doumbo
181,Sultepec,MX,59.0,broken clouds,18.87,-99.95,Estacionamiento Tio Chente
183,Marrakesh,MA,78.8,clear sky,31.63,-8.01,Les Jardins de La Koutoubia
184,Altay,CN,59.31,clear sky,47.87,88.12,Jinqiao Hotel
185,Sao Filipe,CV,79.68,light rain,14.9,-24.5,Tortuga B&B
186,Baruun-Urt,MN,65.5,clear sky,46.68,113.28,Ахмадын амралт сувилал
187,Saldanha,ZA,55.4,broken clouds,-33.01,17.94,Blue Bay Lodge
188,Kruisfontein,ZA,57.0,scattered clouds,-34.0,24.73,Oyster Bay House Rental
189,San Carlos,VE,74.32,scattered clouds,9.66,-68.58,Hotel Paternopoli
191,Makakilo City,US,84.2,overcast clouds,21.35,-158.09,Marriott's Ko Olina Beach Club
192,Touros,BR,69.8,scattered clouds,-5.2,-35.46,INN NEW HORIZON
193,Amberley,US,68.0,clear sky,39.2,-84.43,"Motel 6 Cincinnati, OH - Central - Norwood"
194,Mahebourg,MU,66.2,broken clouds,-20.41,57.7,Shandrani Beachcomber Resort & Spa
195,Port Lincoln,AU,60.94,scattered clouds,-34.73,135.87,Port Lincoln Hotel
196,Terney,RU,73.69,clear sky,45.05,136.61,Sikhote-Alin'
197,Broken Hill,AU,66.2,clear sky,-31.95,141.43,Daydream Motel & Cottages
198,Kemin,KG,69.82,clear sky,42.78,75.69,Hotel Kok-Oirok
199,La Rioja,ES,59.0,clear sky,42.25,-2.5,Casa Concejos
200,Lata,PT,66.99,clear sky,40.16,-8.33,Casa Maquia
201,Havre-Saint-Pierre,CA,50.0,clear sky,50.23,-63.6,Auberge Niapiskau
202,Flinders,AU,72.0,clear sky,-34.58,150.86,Shellharbour Resort & Conference Centre
203,High Level,CA,59.0,broken clouds,58.52,-117.14,Days Inn by Wyndham High Level
205,Whitehorse,CA,53.6,shower rain,60.72,-135.05,The Sternwheeler Hotel & Conference Centre
207,Santiago,CL,50.0,few clouds,-33.46,-70.65,Hotel Panamericano
211,Plastun,RU,75.15,clear sky,44.76,136.29,Gostinitsa Rossiyanochka
212,Seoul,KR,78.8,few clouds,37.57,126.98,LOTTE HOTEL SEOUL
213,Tapah,MY,80.6,few clouds,4.2,101.26,Shahrini Homestay
214,Kavaratti,IN,81.95,overcast clouds,10.57,72.64,Hotels in Lakshadweep Islands
216,Cayenne,GF,78.8,clear sky,4.93,-52.33,Hôtel Le Dronmi
218,Ballina,AU,82.99,scattered clouds,-28.87,153.57,Ramada Hotel & Suites by Wyndham Ballina Byron
219,Portland,US,79.0,overcast clouds,45.52,-122.68,Portland Marriott City Center
221,Mantua,IT,63.0,clear sky,45.17,10.78,Hotel la Favorita
222,Gushikawa,JP,82.4,scattered clouds,26.35,127.87,Kirari Guest House
224,Nauta,PE,73.8,broken clouds,-4.51,-73.58,Amazon Exploring Expedition - Eretzen Tá Lodge
225,Amparafaravola,MG,52.93,broken clouds,-17.58,48.22,Aina Franco
227,Port Shepstone,ZA,63.37,clear sky,-30.74,30.45,My Den Beachfront B&B And Self-Catering
228,Kaitangata,NZ,57.18,broken clouds,-46.28,169.85,Kaitangata Motor Camp
229,Nantucket,US,73.4,overcast clouds,41.28,-70.1,Jared Coffin House
231,Balsas,BR,73.8,clear sky,-7.53,-46.04,Novo Hotel
232,Baillif,GP,78.8,broken clouds,16.02,-61.75,Chambres Bougainvilliers Vue Mer
233,Parambu,BR,73.78,broken clouds,-6.21,-40.69,Hotel pousada santo onofre
234,Tuatapere,NZ,57.2,overcast clouds,-46.13,167.68,Ron and Tony's Bed & Breakfast
235,Mehamn,NO,54.52,broken clouds,71.04,27.85,Mehamn Arctic Hotel AS
236,Awbari,LY,79.29,clear sky,26.59,12.78,فندق أوباري
237,Warrnambool,AU,57.99,clear sky,-38.38,142.48,Lady Bay Resort
238,Kattivakkam,IN,86.0,mist,13.22,80.32,St. Joseph Thirumana mandapam
239,Saint-Pierre,RE,64.4,broken clouds,-21.34,55.48,Lindsey Hôtel
240,Okha,RU,64.6,overcast clouds,53.57,142.95,Империя
241,Bathsheba,BB,80.6,scattered clouds,13.22,-59.52,Atlantis Hotel
243,Batemans Bay,AU,66.0,few clouds,-35.72,150.18,Coachhouse Marina Resort - Batemans Bay
244,Ahipara,NZ,56.93,overcast clouds,-35.17,173.17,Ahipara Holiday Park
245,Pingxiang,CN,81.55,broken clouds,27.62,113.85,Haiyuntian Hotel
246,Dunedin,NZ,55.99,broken clouds,-45.87,170.5,Scenic Hotel Southern Cross
248,Dayong,CN,77.0,broken clouds,25.02,118.29,Haiyue Express Hotel
249,Houma,US,82.0,clear sky,29.6,-90.72,Courtyard by Marriott Houma
251,Udala,ES,69.01,clear sky,43.08,-2.51,Hotel Arrasate
252,Pudozh,RU,56.43,moderate rain,61.81,36.53,Guest-House na Transportnoy
253,Campo Maior,BR,81.66,overcast clouds,-4.83,-42.17,Elite Hotel
255,San Rafael,AR,51.13,clear sky,-34.62,-68.33,Hotel San Rafael
256,Ponta Do Sol,PT,73.4,scattered clouds,32.67,-17.1,Hotel do Campo
257,Daru,PG,80.33,scattered clouds,-9.08,143.21,New century hotel
258,Hami,CN,78.35,clear sky,42.8,93.45,Laoyutang Resort
259,Worth,US,73.4,clear sky,41.69,-87.8,Bridgeview Inn
260,Alberton,CA,62.56,clear sky,46.82,-64.07,La Petite France B&B
262,Purna,IN,82.38,overcast clouds,19.18,77.05,हनुमान इंजिनिअरींग वर्कशॉप
263,Marawi,PH,84.99,few clouds,8.0,124.29,Salihmaruhom
264,Boueni,YT,75.2,light rain,-12.9,45.08,Auberge bouloulou( inter djasmire )
267,Prince Rupert,CA,57.2,light rain,54.32,-130.32,Crest Hotel
270,Kodiak,US,55.4,clear sky,57.79,-152.41,Best Western Kodiak Inn and Convention Center
272,Nara,JP,96.01,scattered clouds,34.69,135.8,Guesthouse Nara Komachi
273,Margate,GB,61.0,overcast clouds,51.38,1.39,Premier Inn Margate hotel
274,Toyooka,JP,84.2,broken clouds,35.53,134.83,O Hotel Toyooka
276,Corinto,GR,75.0,clear sky,37.94,22.96,Ephira Hotel
278,Sorland,NO,54.9,few clouds,67.67,12.69,Sjybrygga fiskecamp
279,Bereda,ES,66.99,overcast clouds,43.27,-7.54,Pazo de Verdes
282,Geraldton,AU,68.0,clear sky,-28.77,114.6,Broadwater Mariner Resort
283,Huarmey,PE,59.41,few clouds,-10.07,-78.15,Hotel Miramar
284,Bay Roberts,CA,68.0,clear sky,47.6,-53.26,Stonewall Inn
285,Bambous Virieux,MU,66.2,broken clouds,-20.34,57.76,Casa Tia Villa
286,Bull Savanna,JM,76.48,clear sky,17.89,-77.59,Big Red's
287,Chillicothe,US,63.0,clear sky,39.33,-82.98,Holiday Inn Express Chillicothe East
288,Calama,CL,50.0,clear sky,-22.47,-68.93,Park Hotel Calama
289,Muros,ES,66.0,clear sky,42.78,-9.06,Apartment Av. Castelao
290,Sabha,LY,79.25,clear sky,27.04,14.43,محطة ام الارانب -سبها مواصلات
292,Jasper,US,75.99,clear sky,37.2,-94.35,Guest House Motel
294,Namatanai,PG,85.06,light rain,-3.67,152.43,Namatanai Hotel
295,Auki,SB,86.9,few clouds,-8.77,160.7,Auki Motel
296,Taltal,CL,54.64,scattered clouds,-25.4,-70.48,Residencial Karime
297,Santa Cruz,BO,71.6,few clouds,-17.8,-63.17,Hotel Cortez
298,Ghorawal,IN,84.43,clear sky,24.77,82.78,Abbas Ujjwal Tent House
299,Hasaki,JP,87.01,broken clouds,35.73,140.83,Inubosaki Kanko Hotel
301,Bilma,NE,89.89,clear sky,18.69,12.92,Expeditions Ténére voyages
302,Tautira,PF,82.4,scattered clouds,-17.73,-149.15,Pension Oaoa
303,Ankara,TR,68.0,few clouds,39.92,32.85,Sheraton Ankara Hotel & Convention Center
305,Onega,RU,56.3,heavy intensity rain,63.91,38.14,Lunny Kot Guest House
306,Benguela,AO,68.72,clear sky,-12.58,13.41,Hotel Praia Morena
310,Marmarion,GR,71.6,clear sky,38.05,24.32,GIKAS APARTMENTS - ΓΚΙΚΑΣ Επιπλωμένα Διαμερίσματα
311,Bari,IT,69.01,clear sky,41.12,16.85,Mercure Villa Romanazzi Carducci Bari
312,Jalu,LY,74.89,clear sky,29.03,21.55,Jalu Hotel
313,Sur,OM,81.46,clear sky,22.57,59.53,Sur Plaza Hotel
314,Camacha,PT,73.4,scattered clouds,33.08,-16.33,Hotel Porto Santo & Spa
315,Sao Francisco,BR,69.31,broken clouds,-15.95,-44.86,Pousada Peixe Vivo
316,Escanaba,US,54.0,clear sky,45.75,-87.06,Sunset Lodge
318,Dzaoudzi,YT,75.2,light rain,-12.79,45.27,Le Rocher
319,Kalmunai,LK,84.06,overcast clouds,7.42,81.82,VS Villa
320,Koksovyy,RU,64.35,light rain,48.2,40.6,"Гостиница ""Станция-320"""
322,Plettenberg Bay,ZA,58.71,broken clouds,-34.05,23.37,Thanda Vista B&B
323,Falam,MM,73.96,overcast clouds,22.92,93.68,Falang Government Guesthouse
324,Airai,TL,78.42,clear sky,-8.93,125.41,Juvinal Martin
325,Xining,CN,51.66,overcast clouds,36.62,101.77,Super Leisure Hotel
326,Sao Jose Da Coroa Grande,BR,73.56,few clouds,-8.9,-35.15,Crôa Mares Hotel
327,Nakhon Phanom,TH,93.0,broken clouds,17.41,104.78,The River Hotel Nakhonphanom
328,Piacabucu,BR,73.11,scattered clouds,-10.41,-36.43,Piaçabuçu News
329,Safaga,EG,91.4,clear sky,26.73,33.94,Lamar Resort Abu Soma
330,Lulea,SE,57.2,scattered clouds,65.58,22.15,Comfort Hotel Arctic
331,Zihuatanejo,MX,81.95,overcast clouds,17.63,-101.55,La Casa Que Canta
332,Estevan,CA,62.01,haze,49.13,-102.98,"Motel 6 Estevan, SK"
333,Cravo Norte,CO,78.8,scattered clouds,6.3,-70.2,Hotel El Puerto
334,Rantauprapat,ID,85.33,broken clouds,2.1,99.83,Permata Land Hotel & Resort
335,Genhe,CN,55.02,overcast clouds,50.78,121.52,Companionship Hotel
336,Giddarbaha,IN,86.27,clear sky,30.2,74.67,Grover'S
337,Torbay,CA,66.0,broken clouds,47.67,-52.73,Gallows Cove
338,Mandalgovi,MN,71.85,overcast clouds,45.76,106.27,В.Ганбат
339,Coahuayana,MX,77.0,moderate rain,18.73,-103.68,Hotel Los Arcos
340,Lompoc,US,64.4,clear sky,34.64,-120.46,Holiday Inn Express Lompoc
341,Havelock,US,82.99,clear sky,34.88,-76.9,Sherwood Motel
342,Kununurra,AU,91.4,clear sky,-15.77,128.73,Hotel Kununurra
343,Acari,PE,60.48,few clouds,-15.43,-74.62,Hospedaje Ximens
344,Shingu,JP,87.8,scattered clouds,33.73,135.98,Shingu UI Hotel
345,Brokopondo,SR,77.83,broken clouds,4.75,-55.17,Matu Island
347,Manokwari,ID,85.44,broken clouds,-0.87,134.08,Swiss Belhotel Manokwari
349,Chake Chake,TZ,75.33,light rain,-5.25,39.77,Hotel Archipelago
350,Aklavik,CA,50.0,broken clouds,68.22,-135.01,Aklavik Inn
351,Codrington,AU,57.25,scattered clouds,-38.27,141.97,Codrington Gardens Bed And Breakfast
352,Ternate,ID,84.67,broken clouds,0.8,127.4,Grand Dafam Bela Ternate
354,Aksu,CN,76.46,scattered clouds,41.12,80.26,Pudong Holiday Hotel
355,Te Anau,NZ,53.58,overcast clouds,-45.42,167.72,Kingsgate Hotel Te Anau
356,Tocopilla,CL,60.28,few clouds,-22.09,-70.2,Hotel Galvarino
357,Broome,US,60.8,clear sky,42.25,-75.83,Chenango Valley State Park
358,Bubaque,GW,79.45,moderate rain,11.28,-15.83,Casa Dora
360,Moron,AR,53.01,scattered clouds,-34.65,-58.62,Hotel Morón
361,Forrest City,US,73.4,clear sky,35.01,-90.79,Hampton Inn Forrest City
362,Fairbanks,US,51.8,broken clouds,64.84,-147.72,Westmark Fairbanks Hotel & Conference Center
363,Sandwick,GB,51.8,few clouds,60.0,-1.25,Beach House Self-Catering Accomodation
364,Victoria,HK,84.2,scattered clouds,22.29,114.16,Mini Hotel Central
366,Lorengau,PG,85.21,scattered clouds,-2.02,147.27,Lorengau Harbourside Hotel
367,Jizan,SA,86.0,broken clouds,17.33,42.67,شهدان. ابوالحجر
368,San Quintin,MX,73.33,clear sky,30.48,-115.95,Old Mill Hotel
370,Kota Kinabalu,MY,87.8,few clouds,5.97,116.07,Gaya Centre Hotel
372,Vilhena,BR,76.17,broken clouds,-12.74,-60.15,Hotel Mirage
373,North Bend,US,62.6,clear sky,43.41,-124.22,Red Lion Hotel Coos Bay
374,Tsnori,GE,66.2,scattered clouds,41.62,45.97,Kabadoni
375,Farmington,US,84.2,clear sky,36.73,-108.22,Courtyard by Marriott Farmington
376,Penjamo,MX,68.0,broken clouds,20.43,-101.73,Hotel - San Miguel
377,Darapidap,PH,86.59,clear sky,17.21,120.41,Candon Beach Resort
378,Saint Anthony,US,66.2,few clouds,45.02,-93.22,Holiday Inn Express Roseville-St. Paul
379,Roald,NO,55.4,light intensity drizzle,62.58,6.13,Flem Cabins
380,Namtsy,RU,66.2,clear sky,62.72,129.67,"""Эңсиэли Киин"""
382,Mitsamiouli,KM,74.89,clear sky,-11.38,43.28,Foyer ADM
383,Del Rio,US,77.0,overcast clouds,29.36,-100.9,Holiday Inn Express & Suites del Rio
384,Dauphin,CA,51.8,few clouds,51.15,-100.05,Canway Inn & Suites
385,Mount Gambier,AU,55.4,broken clouds,-37.83,140.77,Commodore on the Park
387,Harper,LR,75.36,overcast clouds,4.38,-7.72,Screensaver
388,Evanton,GB,51.8,shower rain,57.66,-4.34,Novar Arms Hotel
389,Komsomolskiy,UZ,73.4,clear sky,40.43,71.72,Ikathouse
390,Yulara,AU,78.8,clear sky,-25.24,130.99,Desert Gardens Hotel - Ayers Rock Resort
391,Ngunguru,NZ,59.27,moderate rain,-35.62,174.5,Pacific Rendezvous Motel Resort
392,Arona,ES,73.99,broken clouds,28.1,-16.68,Paradise Court
393,Talcahuano,CL,50.0,broken clouds,-36.72,-73.12,Hotel Terramar
394,Myitkyina,MM,83.98,overcast clouds,25.38,97.4,Shwe Phyu Hotel
395,Dakar,SN,78.8,scattered clouds,14.69,-17.44,Novotel Dakar
396,Hamilton,US,69.01,clear sky,39.18,-84.53,Six Acres Bed & Breakfast
397,Znamenka,RU,52.11,overcast clouds,52.42,41.43,Gostinitsa Yeseninskaya
398,Chau Doc,VN,88.95,broken clouds,10.7,105.12,Thanh Nam 2 Mini Hotel
399,Dieppe,FR,57.2,light rain,49.75,1.17,LA LONGERE DES NUITS DE VARENNE
400,Porto Murtinho,BR,75.87,overcast clouds,-21.7,-57.88,Hotel Pantanal
402,Ostrovskoye,RU,53.87,overcast clouds,57.81,42.24,Country house Sosnoviy Bor Ostrovtsy
403,Port Blair,IN,85.08,overcast clouds,11.67,92.75,Fortune Resort Bay Island
404,Coquimbo,CL,53.6,scattered clouds,-29.95,-71.34,Hotel San Juan
405,Narasannapeta,IN,83.89,scattered clouds,18.42,84.05,G.lingaraju home
406,Sarkand,KZ,60.19,few clouds,45.41,79.92,Гостиница Сарканд
407,Buenaventura,CO,75.88,overcast clouds,3.88,-77.03,VILLA FAMILIAR EN LA BARRA / GRACE VILLAGES
408,Xiaoshi,CN,78.8,clear sky,41.3,124.12,Junsheng Fengweilou Farmstay
409,Mount Isa,AU,89.6,few clouds,-20.73,139.5,ibis Styles Mt Isa Verona
410,Ames,US,71.6,clear sky,42.03,-93.62,Holiday Inn Express & Suites Ames
411,Plouzane,FR,57.2,overcast clouds,48.38,-4.62,Résidence Nemea Iroise Armorique
412,Mogadishu,SO,76.53,broken clouds,2.04,45.34,Hotel Juba
413,Terme,TR,75.2,broken clouds,41.21,36.97,OTEL GÜVEN TERME
414,South Yuba City,US,89.6,haze,39.12,-121.64,Bonanza Inn & Suites Yuba City
415,Bethel,US,64.0,clear sky,41.37,-73.41,Courtyard by Marriott Danbury
416,Batangafo,CF,69.46,light rain,7.3,18.28,OCHA Office
417,Kalianget,ID,84.33,few clouds,-7.05,113.93,Pesanggrahan Garam
418,Agustin Codazzi,CO,73.96,overcast clouds,10.03,-73.24,MOTEL LA GRANJA
419,Isangel,VU,73.4,broken clouds,-19.55,169.27,Volcano Sea View Tree House
420,Cururupu,BR,74.35,clear sky,-1.83,-44.87,Pousada Través'cia
421,Salalah,OM,78.8,broken clouds,17.02,54.09,HAMDAN PLAZA HOTEL
422,Puerto Escondido,MX,78.53,overcast clouds,15.85,-97.07,Aldea del Bazar Hotel and Spa
424,Faya,SA,64.4,clear sky,18.39,42.45,مقبرة ال مجمل
425,Nuzvid,IN,84.2,scattered clouds,16.78,80.85,HI-TECH LODGE
427,Cockburn Town,TC,83.53,overcast clouds,21.46,-71.14,Osprey Beach Hotel
428,El Dorado,US,78.8,broken clouds,33.21,-92.67,"Country Inn & Suites by Radisson, El Dorado, AR"
430,Alihe,CN,54.3,overcast clouds,50.57,123.72,Alihe Forestry Hotel
431,Beterou,BJ,71.73,light rain,9.2,2.26,Monastère de Kokoubou
432,College,US,51.8,shower rain,64.86,-147.8,Pike's Waterfront Lodge
433,Maragogi,BR,73.13,few clouds,-9.01,-35.22,Salinas do Maragogi All Inclusive Resort
435,Mackay,AU,77.0,clear sky,-21.15,149.2,International Lodge Motel
436,Erenhot,CN,70.2,broken clouds,43.65,111.98,Erenhot Rurouni Youth Hostel
437,Mananjary,MG,62.87,broken clouds,-21.22,48.33,Vahiny Lodge
438,Solnechnyy,RU,75.16,clear sky,50.72,136.63,Hotel complex Pastoral
439,Mareeba,AU,84.2,clear sky,-17.0,145.43,Trinity Plains Tourist Park
441,Altamont,US,84.2,haze,42.21,-121.74,Microtel Inn & Suites by Wyndham Klamath Falls
444,Waingapu,ID,88.57,clear sky,-9.66,120.26,Pondok Wisata Elim
445,Pathein,MM,87.08,light rain,16.78,94.73,Pathein Hotel
448,Martinsville,US,75.2,overcast clouds,36.69,-79.87,Hampton Inn Martinsville
449,Kamsack,CA,59.0,clear sky,51.57,-101.9,Liquor Store Kamsack & Woodlander Hotel
450,Surt,LY,77.79,clear sky,31.21,16.59,City Hotel
451,Sinazongwe,ZM,66.2,clear sky,-17.26,27.46,Lakeview Lodge
452,Praia Da Vitoria,PT,70.0,broken clouds,38.73,-27.07,Hotel Branco I
454,Alghero,IT,64.4,clear sky,40.56,8.32,Hotel Carlos V
455,Zeya,RU,56.59,moderate rain,53.75,127.27,Kapital Inn
456,Mbanza-Ngungu,CD,68.61,clear sky,-5.25,14.87,Hotel Full Business
458,Takaka,NZ,55.99,light rain,-40.85,172.8,Golden Bay Motels
459,Ust-Uda,RU,68.86,overcast clouds,54.17,103.03,Gostinitsa Ust'-Uda Shans
460,Pacifica,US,66.2,clear sky,37.61,-122.49,"Pacifica Lighthouse, Trademark Collection by Wyndham"
462,Kloulklubed,PW,86.0,broken clouds,7.04,134.26,Storyboard Beach Resort
463,Canico,PT,73.4,scattered clouds,32.63,-16.85,Quinta Splendida Wellness & Botanical Garden
465,Mingyue,CN,76.21,few clouds,43.11,128.92,安图土地大厦
467,Pirai Do Sul,BR,70.0,clear sky,-24.53,-49.95,Hotel Victor
468,Raudeberg,NO,51.01,moderate rain,61.99,5.14,Nordre Silda.
469,Ugento,IT,64.4,clear sky,39.93,18.16,Porta Paradiso
470,Buala,SB,84.97,light rain,-8.14,159.59,Maringe Lagoon Lodge
471,Port Augusta,AU,69.01,scattered clouds,-32.5,137.77,Majestic Oasis Apartments
472,Camana,PE,58.96,clear sky,-16.62,-72.71,Hostal Morales
473,Atar,MR,86.61,broken clouds,20.52,-13.05,Oumou Elghoura
474,Owensboro,US,69.8,clear sky,37.77,-87.11,Courtyard by Marriott Owensboro
475,Guantanamo,CU,84.2,scattered clouds,20.14,-75.21,Hotel Marti
476,La Ronge,CA,51.8,broken clouds,55.1,-105.28,Northland Motor Hotel
477,Dubbo,AU,64.4,scattered clouds,-32.25,148.62,Comfort Inn Blue Lagoon
478,Savannah Bight,HN,83.79,broken clouds,16.45,-85.85,Villa on Dunbar Rock
480,Lubao,PH,87.8,scattered clouds,14.92,120.55,Hacienda Gracia
481,Nanzhang,CN,84.65,scattered clouds,31.78,111.84,Longmenkezhan
482,Korla,CN,77.54,scattered clouds,41.76,86.15,Gulisitan Hotel
483,Kraskino,RU,71.76,scattered clouds,42.71,130.78,"Gostinichnyy Kompleks ""Orion"""
484,Swift Current,CA,68.0,clear sky,50.28,-107.8,"Motel 6 Swift Current, SK"
485,Linxia,CN,56.1,overcast clouds,35.6,103.21,GreenTree Inn Linxia Autonomous Prefecture Linxia Oxford River Avenue Express Hotel
486,Tura,IN,80.78,overcast clouds,25.52,90.22,Hotel RIKMAN Continental
487,Hovd,MN,64.26,clear sky,48.01,91.64,Hotel Khovd
488,Vila Franca Do Campo,PT,69.8,light intensity shower rain,37.72,-25.43,Pestana Bahia Praia
489,Brookhaven,US,81.0,broken clouds,31.58,-90.44,Americas Best Value Inn Brookhaven
490,Gusinoye Ozero,RU,65.46,overcast clouds,51.11,106.26,Gusi-Lebedi Baza Otdykha
491,Yagoua,CM,73.42,moderate rain,10.34,15.23,HÔTEL LE PROGRÈS
492,Madras,IN,86.0,mist,13.09,80.28,"Taj Connemara, Chennai"
493,Alyangula,AU,87.8,broken clouds,-13.85,136.42,Groote Eylandt Lodge
494,Morondava,MG,67.3,clear sky,-20.28,44.28,La Case Bambou
495,Svay Rieng,KH,88.0,broken clouds,11.09,105.8,Apsara guesthouse
496,Warri,NG,75.2,overcast clouds,5.52,5.75,BON Hotel Delta
497,Sawakin,SD,89.17,clear sky,19.11,37.33,فندق الدويم
498,Byron Bay,AU,82.99,scattered clouds,-28.65,153.62,Backpackers Inn on the Beach
500,Hambantota,LK,80.6,few clouds,6.12,81.12,Bungalow 63
502,Karasjok,NO,57.2,overcast clouds,69.47,25.51,Karasjok camping AS
503,Karratha,AU,86.61,broken clouds,-20.74,116.85,ibis Styles Karratha
504,Devonport,AU,61.0,few clouds,-41.17,146.35,Quality Hotel Gateway
505,Pizarro,CO,78.1,light rain,4.95,-77.37,"Playa Pizarro, Bajo Baudó, Chocó, Colombia"
506,Anuppur,IN,82.49,clear sky,23.1,81.68,PWD vishramgruh GUEST HOUSE
507,Kudahuvadhoo,MV,82.4,very heavy rain,2.67,72.89,Kudahuvadhoo Retreat
508,Lewisburg,US,64.99,few clouds,35.45,-86.79,Celebration Inn
509,Gazimurskiy Zavod,RU,58.86,broken clouds,51.55,118.33,Gostinitsa Gazimur
510,Ndjole,GA,72.61,overcast clouds,-0.18,10.76,Motel Kedyann
511,Alofi,NU,77.0,scattered clouds,-19.06,-169.92,Taloa Heights
512,Qui Nhon,VN,87.42,clear sky,13.77,109.23,Khách sạn Hải Âu Quy Nhơn - Seagull Hotel
513,Orocue,CO,77.74,broken clouds,4.79,-71.34,Hotel Brisas de San Miguel
514,Maple Creek,CA,69.21,clear sky,49.92,-109.48,Willowbend Campground & Cabins
515,Hays,US,73.0,overcast clouds,30.05,-98.03,Sinya on Lone Man Creek
516,Nishihara,JP,84.2,broken clouds,26.18,127.76,Minshuku Agaihama
517,Puerto Colombia,CO,78.8,scattered clouds,10.99,-74.95,Hotel El Emigrante
519,Nouadhibou,MR,75.2,scattered clouds,20.93,-17.03,El Medina
520,Shakawe,BW,63.63,clear sky,-18.37,21.85,Ditlhapi Guest House
521,Ulaanbaatar,MN,57.2,broken clouds,47.91,106.88,The Blue Sky Hotel and Tower
522,Batticaloa,LK,83.68,overcast clouds,7.71,81.69,Grand Star Guest House
523,Formosa Do Rio Preto,BR,68.94,few clouds,-11.05,-45.19,Porto Center Hotel
524,Thiruvananthapuram,IN,84.2,haze,8.48,76.92,Hotel Residency Tower
525,Shimoda,JP,84.2,few clouds,34.67,138.95,Shimoda Tokyu Hotel
526,Khasan,RU,69.39,broken clouds,42.43,130.64,Krako Motorkár
528,Atambua,ID,86.2,clear sky,-9.11,124.89,Pondok Pesantren Al Muhajirin Atambua
529,Trinidad,BO,79.68,broken clouds,-14.83,-64.9,Hotel Piesta
531,Uchiza,PE,69.58,clear sky,-8.46,-76.46,Hotel El Rancho
533,Sao Joao Da Barra,BR,72.01,clear sky,-21.64,-41.05,Pousada Porto De Canoas
534,Aktau,KZ,60.8,clear sky,43.65,51.2,Silk Way Hotel
536,San Angelo,US,82.4,clear sky,31.46,-100.44,"Motel 6 San Angelo, TX"
537,Salinopolis,BR,78.96,broken clouds,-0.61,-47.36,Hotel Salinópolis
539,Arinos,BR,63.43,clear sky,-15.92,-46.11,Hotel Dias
540,Bani Walid,LY,72.16,broken clouds,31.76,13.99,منزل الصابر أبوفانة
541,Bolivar,US,73.0,clear sky,37.61,-93.41,Comfort Inn Bolivar
542,Holetown,BB,80.6,scattered clouds,13.19,-59.64,The Palms Resort
544,Samarai,PG,78.62,overcast clouds,-10.62,150.67,Nuli Sapi
545,Luanda,AO,70.75,broken clouds,-8.84,13.23,EPIC SANA Luanda
546,Singaparna,ID,78.78,scattered clouds,-7.35,108.11,"H. maman Sukirman ""Koran"""
547,Katsuura,JP,88.0,few clouds,35.13,140.3,Katsuura Hotel Mikazuki
548,Rio Tercero,AR,53.01,clear sky,-32.17,-64.11,Hospedaje Las Violetas
549,Pisco,PE,59.0,clear sky,-13.7,-76.22,Hostal San Isidro Oficial
550,Najran,SA,71.6,clear sky,17.49,44.13,محمد هادي ال فطيح
551,Woodward,US,80.01,clear sky,36.43,-99.39,Holiday Inn Express & Suites Woodward Hwy 270
552,Atherton,GB,55.99,overcast clouds,53.52,-2.49,The Mercury Motel
553,Abha,SA,64.4,clear sky,18.22,42.51,Abha Hotel
554,Sept-Iles,CA,53.01,scattered clouds,50.2,-66.38,Comfort Inn
556,Den Helder,NL,59.0,overcast clouds,52.96,4.76,Hotel Den Helder
557,Namibe,AO,62.11,scattered clouds,-15.2,12.15,Hotel Chik Chik Namibe
563,Nhulunbuy,AU,84.2,broken clouds,-12.23,136.77,East Arnhem Real Estate
564,Ponta Delgada,PT,69.8,light intensity shower rain,37.73,-25.67,Vila Nova Hotel
565,Dunmore East,IE,50.0,clear sky,52.15,-6.99,The Strand Inn
566,Bardstown,US,66.0,clear sky,37.81,-85.47,Hampton Inn Bardstown
567,Sayyan,YE,59.2,scattered clouds,15.17,44.32,الاستاذة مروى اليوسفي
568,Padang,ID,78.24,overcast clouds,-0.95,100.35,Mercure Padang
569,Sulphur Springs,US,78.8,broken clouds,33.14,-95.6,Clarion Pointe Sulphur Springs
570,Port-Gentil,GA,75.02,overcast clouds,-0.72,8.78,Fengshui Residence
571,Kimbe,PG,85.19,moderate rain,-5.55,150.14,Kimbe Bay Hotel
574,Nemuro,JP,73.4,broken clouds,43.32,145.57,Hotel Nemuro Kaiyoutei
575,Devgarh,IN,78.73,clear sky,25.53,73.9,Deogarh Mahal
576,Wabash,US,55.99,clear sky,40.8,-85.82,Holiday Inn Express & Suites Wabash
578,Lhokseumawe,ID,85.42,overcast clouds,5.18,97.15,OYO 3278 Penginapan Alfajri
579,Bairiki,KI,89.6,scattered clouds,1.33,172.98,Tarawa Boutique Hotel
580,Yatou,CN,79.83,clear sky,37.15,122.38,GreenTree Hotel Rongcheng Bus Station
581,Monkey Bay,MW,64.71,few clouds,-14.07,34.92,Monkey Bay Beach Lodge
582,Antalaha,MG,64.31,clear sky,-14.9,50.28,Hotel Vitasoa
583,Newington,US,66.0,scattered clouds,41.7,-72.72,Courtyard by Marriott Hartford Farmington
584,Magistralnyy,RU,70.7,clear sky,56.17,107.45,Магистраль
585,Nelson Bay,AU,73.99,few clouds,-32.72,152.15,Mantra Nelson Bay
586,Northam,GB,57.0,clear sky,51.03,-4.22,Durrant House Hotel
587,Eichstatt,DE,61.0,fog,48.88,11.18,Hotel Adler
588,Masindi,UG,62.26,broken clouds,1.67,31.71,New Court View Hotel
591,Pringsewu,ID,85.35,heavy intensity rain,-5.36,104.97,Urban Style by Front One
592,Nelidovo,RU,52.14,broken clouds,56.22,32.78,"Tsentral'naya, Gostinitsa"
594,Sinjar,IQ,74.86,clear sky,36.32,41.88,زوماني فون 1
595,Puri,IN,87.8,scattered clouds,19.8,85.85,OYO 1577 Hotel Shree Hari Grand
596,Goderich,CA,70.0,scattered clouds,43.75,-81.72,Harmony Inn
597,Empalme,MX,97.0,few clouds,27.97,-110.82,El Limonal
598,Karpathos,GR,77.0,clear sky,35.51,27.21,Alex
599,Nyaunglebin,MM,86.67,scattered clouds,17.95,96.73,Royal Motel
601,Harnosand,SE,55.4,fog,62.63,17.94,First Hotel Stadt
602,Aswan,EG,87.46,few clouds,24.09,32.91,Nuba Nile
603,Tommot,RU,55.11,overcast clouds,58.96,126.29,Gostinitsa Tommot
604,Kapurthala,IN,78.8,mist,31.38,75.38,Hotel Mehak
605,Salina,US,80.6,clear sky,38.84,-97.61,Holiday Inn Express & Suites Salina
606,Yazman,PK,87.12,broken clouds,29.12,71.74,Jamal sons showroom
607,Cairns,AU,84.2,clear sky,-16.92,145.77,Mantra Trilogy Cairns
609,Shenjiamen,CN,79.47,scattered clouds,29.96,122.3,Jinjiang Inn Zhoushan Putuo Shenjiamen
610,Trairi,BR,77.67,few clouds,-3.28,-39.27,Pousada Field Lilies - Trairi
611,Leshukonskoye,RU,54.41,overcast clouds,64.9,45.76,Gostinitsa Mup Zhkkh
612,Soledade,BR,51.37,clear sky,-28.82,-52.51,Pousada Da Gringa
613,Ornskoldsvik,SE,57.2,overcast clouds,63.29,18.72,First Hotel Statt
615,Medea,DZ,64.4,clear sky,36.26,2.75,Hôtel M'Sallah
616,Dubai,AE,87.8,clear sky,25.26,55.3,"Radisson Blu Hotel, Dubai Deira Creek"
618,Huilong,CN,88.0,clear sky,31.81,121.66,Hilton Garden Inn Qidong
619,Kulhudhuffushi,MV,82.44,overcast clouds,6.62,73.07,Haajy Guest House 1
620,Rapid Valley,US,75.2,smoke,44.06,-103.15,Fairfield Inn & Suites by Marriott Rapid City
621,Clarksdale,US,77.0,broken clouds,34.2,-90.57,Americas Best Value Inn & Suites
622,Haimen,CN,84.2,few clouds,23.19,116.61,Jinghao Business Hotel
623,Anjiang,CN,78.24,heavy intensity rain,27.32,110.1,Dahua Hotel
624,Linjiang,CN,75.45,clear sky,41.81,126.91,Mingmen Business Hotel
625,Vallenar,CL,54.99,few clouds,-28.57,-70.76,Humacao Bed & Breakfast
626,Paraiso,CR,68.0,fog,9.84,-83.87,Rinconcito Verde
628,Pampa,US,78.8,clear sky,35.54,-100.96,Holiday Inn Express & Suites Pampa
629,Alice Springs,AU,78.8,few clouds,-23.7,133.88,Desert Palms Alice Springs
630,Opelika,US,80.6,clear sky,32.65,-85.38,Days Inn by Wyndham Opelika
631,Ixtapa,MX,87.8,broken clouds,20.7,-105.2,Container Inn Puerto Vallarta
632,Puerto Carreno,CO,78.89,overcast clouds,6.19,-67.49,Casa Hotel Victoria
633,Fukue,JP,69.8,shower rain,32.69,128.84,Goto Guesthouse Utojuku & SA Car Rental
635,Gwadar,PK,81.18,scattered clouds,25.12,62.33,Sadaf Resort
636,Luchegorsk,RU,75.13,clear sky,46.48,134.26,Mirazh
637,Yala,TH,80.6,few clouds,6.33,101.25,งานแต่ง Murnee - Wahid
638,Waw,SS,68.92,scattered clouds,7.7,28.0,Universal Gab Hotel
639,Meadow Lake,US,84.2,clear sky,34.8,-106.54,JKL Inc. R.V Park and Storage
640,Great Falls,US,78.8,clear sky,47.5,-111.3,La Quinta Inn & Suites by Wyndham Great Falls
641,Klyuchi,RU,50.09,broken clouds,52.27,79.17,Vesolaya Mayovka
642,Brandenburg,DE,64.99,broken clouds,52.42,12.55,SEEHOTEL Brandenburg a.d. Havel
644,Bundaberg,AU,77.0,scattered clouds,-24.85,152.35,Takalvan Motel
645,Suhbaatar,MN,67.28,overcast clouds,50.23,106.21,Hotel Nine
646,Manzil Salim,TN,62.6,few clouds,35.86,8.48,mohamed ben khlil omri
647,Beyneu,KZ,63.34,clear sky,45.32,55.2,NUR
649,Kiruna,SE,51.8,overcast clouds,67.86,20.23,Camp Ripan
650,Dingle,PH,88.07,broken clouds,11.0,122.67,Camp Pasica
651,Praya,CV,78.8,broken clouds,14.92,-23.51,LT Aparthotel
652,Quelimane,MZ,67.48,light rain,-17.88,36.89,Hotel Flamingo
653,Tezu,IN,86.65,overcast clouds,27.92,96.17,Circuit House
654,Acajutla,SV,73.99,light rain,13.59,-89.83,Stop.
655,Emerald,AU,81.0,broken clouds,-23.53,148.17,The Irish Village
656,Tual,ID,80.38,scattered clouds,-5.67,132.75,Grand Vilia Hotel
657,Mandurah,AU,68.0,overcast clouds,-32.55,115.7,Atrium Hotel Mandurah
658,Mae Sai,TH,84.0,scattered clouds,20.43,99.88,Piyaporn Hill Paradise Hotel
659,Maceio,BR,73.4,scattered clouds,-9.67,-35.74,Mercure Maceio Pajucara Hotel
661,Cabedelo,BR,71.6,broken clouds,-6.98,-34.83,Lua Mansa Pousada
662,Kutahya,TR,60.8,scattered clouds,39.42,29.98,Grand Çınar Hotel
663,Taft,IR,66.2,clear sky,31.75,54.21,بوم گردی حاجی زینل تفت
664,General Pico,AR,52.63,broken clouds,-35.66,-63.76,Hotel Malargue
665,Coueron,FR,61.0,overcast clouds,47.22,-1.72,ibis budget Nantes Ouest Atlantis Couëron
667,Great Yarmouth,GB,53.01,scattered clouds,52.61,1.73,Comfort Hotel Great Yarmouth
668,Banjar,ID,86.0,scattered clouds,-8.19,114.97,The Hamsa Resort
669,Halifax,CA,66.0,light rain,44.65,-63.57,Hotel Halifax
670,Nanakuli,US,84.0,overcast clouds,21.39,-158.15,Camp Palehua
671,Ahuimanu,US,84.2,scattered clouds,21.44,-157.84,Paradise Bay Resort
672,Cap Malheureux,MU,66.0,clear sky,-19.98,57.61,Pereybere Hotel & Spa
673,Conakry,GN,76.32,light rain,9.54,-13.68,Riviera Royal Hotel
674,Barroquinha,BR,72.09,clear sky,-3.02,-41.14,Residencial Lago Bush
675,Malanje,AO,68.76,few clouds,-9.54,16.34,Malanje Hotel
676,Dumas,US,79.0,clear sky,35.87,-101.97,Holiday Inn Express & Suites Dumas
677,North Platte,US,73.99,clear sky,41.12,-100.77,Holiday Inn Express & Suites North Platte
679,Sao Borja,BR,54.41,clear sky,-28.66,-56.0,Hotel Executivo
680,Krasnoselkup,RU,52.92,scattered clouds,65.7,82.47,Krasnosel'kupnefteprodukt
681,Vigrestad,NO,50.0,moderate rain,58.57,5.7,Brusand Camping
682,Kizukuri,JP,84.99,broken clouds,40.81,140.39,Hotel Sunroute Patio Goshogawara
